City_ID,City,Lat,Lng,Max Temp,Humidity,Cloudiness,Wind Speed,Country,Date
0,aasiaat,68.7098,-52.8699,37.49,88,64,2.71,GL,1722884042
1,blackmans bay,-43.0167,147.3167,50.74,74,100,1.99,AU,1722884043
2,kone,-21.0595,164.8658,58.03,78,8,3.67,NC,1722884044
3,puerto natales,-51.7236,-72.4875,34.25,86,40,2.3,CL,1722883853
4,makushino,55.2103,67.2442,64.22,84,100,7.38,RU,1722884047
5,hamilton,39.1834,-84.5333,93.78,53,0,9.22,US,1722884048
6,port elizabeth,-33.918,25.5701,56.32,65,0,8.05,ZA,1722884049
7,udachny,66.4167,112.4,50.56,88,100,17.65,RU,1722884050
8,albany,42.6001,-73.9662,86.36,63,96,1.01,US,1722883851
9,aykhal,66.0,111.5,48.04,86,65,15.23,RU,1722884052
10,puerto ayora,-0.7393,-90.3518,76.96,78,59,11.9,EC,1722884053
11,georgetown,5.4112,100.3354,84.13,78,20,2.3,MY,1722883736
12,howard springs,-12.497,131.047,73.31,88,10,5.77,AU,1722884056
13,belvedere marittimo,39.6179,15.8617,82.11,73,0,2.66,IT,1722884057
14,pisco,-13.7,-76.2167,66.25,72,1,9.22,PE,1722884059
15,adamstown,-25.066,-130.1015,67.08,65,21,12.28,PN,1722884060
16,dubove,48.1721,23.8895,60.06,98,100,0.67,UA,1722884061
17,margaret river,-33.95,115.0667,61.3,84,99,17.05,AU,1722884062
18,gebeit,21.0667,36.3167,84.07,57,100,10.78,SD,1722884063
19,grytviken,-54.2811,-36.5092,17.04,76,100,10.74,GS,1722884064
20,gurupi,-11.7292,-49.0686,92.34,20,0,7.74,BR,1722884065
21,west island,-12.1568,96.8225,76.98,78,40,5.75,CC,1722884066
22,ribeira grande,38.5167,-28.7,81.0,78,20,12.66,PT,1722884067
23,tromso,69.6496,18.957,69.82,52,20,10.36,NO,1722884068
24,yellowknife,62.456,-114.3525,68.41,56,75,10.0,CA,1722884069
25,souda,35.4844,24.0744,106.61,61,0,0.0,GR,1722884070
26,waitangi,-43.9535,-176.5597,48.81,93,86,5.01,NZ,1722884071
27,pionerskiy,54.9508,20.2275,66.04,83,14,11.56,RU,1722884072
28,vernon,50.2581,-119.2691,88.61,32,0,2.3,CA,1722884073
29,tiksi,71.6872,128.8694,52.41,76,100,5.73,RU,1722884074
30,lihue,21.9789,-159.3672,80.74,71,0,11.5,US,1722884075
31,haiku-pauwela,20.9219,-156.3051,80.26,72,0,14.97,US,1722884076
32,alotau,-10.3069,150.4462,73.47,96,99,4.59,PG,1722884077
33,vorgashor,67.5833,63.95,43.2,72,6,6.78,RU,1722884078
34,tukrah,32.5341,20.5791,82.65,69,0,8.88,LY,1722884079
35,east london,-33.0153,27.9116,52.74,66,0,6.91,ZA,1722884080
36,ust-nera,64.5667,143.2,52.77,66,99,4.65,RU,1722884081
37,ushuaia,-54.8,-68.3,31.66,69,20,0.0,AR,1722883913
38,callao,-12.0667,-77.15,72.43,81,69,14.09,PE,1722884083
39,angra do heroismo,38.65,-27.2167,83.01,82,40,7.0,PT,1722884084
40,viedma,-40.8135,-62.9967,65.91,21,100,12.57,AR,1722884085
41,avarua,-21.2078,-159.775,75.25,83,2,9.22,CK,1722884086
42,nova sintra,14.8667,-24.7167,81.61,71,42,4.63,CV,1722884087
43,port saint john's,-31.6229,29.5448,57.06,71,0,6.4,ZA,1722884088
44,hawaiian paradise park,19.5933,-154.9731,80.73,79,97,1.01,US,1722884089
45,broome,42.2506,-75.833,85.69,59,100,11.99,US,1722884090
46,port-aux-francais,-49.35,70.2167,33.82,72,12,12.39,TF,1722884093
47,edinburgh of the seven seas,-37.0676,-12.3116,56.73,91,92,24.65,SH,1722884094
48,ola,59.5833,151.2833,54.32,85,100,2.84,RU,1722884095
49,praia da vitoria,38.7333,-27.0667,82.65,69,40,7.16,PT,1722884096
50,petropavlovsk-kamchatsky,53.0452,158.6483,52.39,100,100,2.24,RU,1722884097
51,bredasdorp,-34.5322,20.0403,47.8,83,0,7.7,ZA,1722884098
52,port macquarie,-31.4333,152.9167,54.07,99,100,1.99,AU,1722884100
53,tsiombe,-25.3,45.4833,64.87,91,5,2.01,MG,1722884101
54,al bawiti,28.3492,28.8659,87.67,21,3,5.28,EG,1722884104
55,san antonio de pale,-1.4014,5.6325,71.96,75,100,9.69,GQ,1722884105
56,codrington,-38.2667,141.9667,42.39,96,100,11.41,AU,1722884106
57,cantagalo,-21.9811,-42.3681,81.32,42,2,4.88,BR,1722884107
58,kota kinabalu,5.9749,116.0724,78.78,83,20,5.75,MY,1722883830
59,isafjordur,66.0755,-23.124,51.84,76,75,16.11,IS,1722884110
60,college,64.8569,-147.8028,73.09,56,20,5.75,US,1722884111
61,yermentau,51.6214,73.1069,62.73,75,2,6.04,KZ,1722884112
62,nar'yan-mar,67.6713,53.087,43.68,83,3,11.99,RU,1722884113
63,lerwick,60.1545,-1.1494,57.2,91,100,4.74,GB,1722884114
64,kapuskasing,49.4169,-82.4331,68.09,48,75,8.05,CA,1722883921
65,abra pampa,-22.7205,-65.697,60.17,4,0,25.84,AR,1722884116
66,saipan,15.1355,145.701,81.3,89,0,4.61,MP,1722884117
67,sauri,11.7266,6.7837,74.14,86,100,7.56,NG,1722884119
68,aleksandrovsk-sakhalinskiy,50.8975,142.1561,56.3,93,42,10.87,RU,1722884120
69,papatowai,-46.5619,169.4708,41.14,84,32,7.56,NZ,1722884121
70,maykop,44.6078,40.1058,68.77,85,6,3.27,RU,1722884122
71,olonkinbyen,70.9221,-8.7187,43.47,96,99,5.48,SJ,1722884123
72,ouadda,8.0777,22.4007,70.11,90,31,4.12,CF,1722884124
73,kalymnos,36.95,26.9833,81.93,61,0,12.66,GR,1722884125
74,xinyuan,37.3,99.0,44.33,82,84,4.16,CN,1722884126
75,stanley,54.868,-1.6985,71.71,77,75,5.75,GB,1722884127
76,iqaluit,63.7506,-68.5145,47.93,76,100,6.91,CA,1722884128
77,tazovsky,67.4667,78.7,46.04,70,99,13.33,RU,1722884129
78,yola,9.2,12.4833,79.41,70,100,5.84,NG,1722884131
79,gao,16.6362,1.637,93.51,43,21,6.96,ML,1722884132
80,sao lourenco,-22.1164,-45.0544,78.4,35,25,3.94,BR,1722884133
81,maintirano,-18.0667,44.0167,73.26,73,5,8.1,MG,1722884134
82,kirakira,-10.4544,161.9205,77.61,88,100,10.27,SB,1722884135
83,tikrit,34.6071,43.6782,96.91,16,0,12.06,IQ,1722884136
84,mili,6.0815,171.735,82.44,77,20,9.89,MH,1722884137
85,egilsstadir,65.2653,-14.3948,49.91,93,75,11.5,IS,1722884138
86,jiangyou,31.7667,104.7167,76.3,91,23,3.33,CN,1722884139
87,kalmunai,7.4167,81.8167,82.11,79,96,6.89,LK,1722884140
88,cockburn town,21.4612,-71.1419,83.26,82,7,17.4,TC,1722884141
89,mitu,1.1983,-70.1733,79.21,94,100,2.44,CO,1722884142
90,ammon,43.4696,-111.9666,86.99,37,0,4.61,US,1722884000
91,chita,52.0333,113.55,51.69,100,54,2.24,RU,1722884146
92,sharypovo,55.5403,89.2008,58.57,93,100,5.88,RU,1722884147
93,papao,-17.75,-149.55,78.48,71,16,10.69,PF,1722884148
94,badger,64.8,-147.5333,73.99,59,20,5.75,US,1722884149
95,merizo village,13.2658,144.6691,80.33,77,100,5.21,GU,1722884150
96,quibdo,5.6947,-76.6611,82.74,78,100,10.36,CO,1722883971
97,lompoc,34.6391,-120.4579,74.84,72,0,11.5,US,1722884152
98,lebu,-37.6167,-73.65,51.22,65,73,6.67,CL,1722884153
99,savastepe,39.3832,27.6561,76.66,69,0,7.34,TR,1722884154
100,kununurra,-15.7667,128.7333,64.38,88,100,4.61,AU,1722884155
101,minas de marcona,-15.2119,-75.1103,60.13,60,0,19.8,PE,1722884156
102,mount gambier,-37.8333,140.7667,42.8,100,100,6.38,AU,1722884157
103,khamgaon,20.6833,76.5667,77.25,89,91,7.11,IN,1722884158
104,beyneu,45.3167,55.2,92.93,24,0,10.51,KZ,1722884159
105,manokwari,-0.8667,134.0833,78.62,80,61,7.23,ID,1722884161
106,grand falls-windsor,48.9332,-55.6649,82.51,72,100,6.51,CA,1722884162
107,hithadhoo,-0.6,73.0833,83.35,73,100,3.27,MV,1722884163
108,port alfred,-33.5906,26.891,56.97,60,0,10.76,ZA,1722884053
109,manturovo,58.3353,44.7619,58.8,96,97,3.56,RU,1722884165
110,ugoofaaru,5.6667,73.0,82.31,74,100,2.95,MV,1722884166
111,sitka,57.0531,-135.33,66.09,63,20,0.0,US,1722884167
112,ujae,8.9322,165.7642,83.77,73,92,7.07,MH,1722884168
113,baker city,44.7749,-117.8344,82.11,39,0,3.44,US,1722884169
114,bethel,41.3712,-73.414,89.53,57,0,5.75,US,1722884170
115,bilibino,68.0546,166.4372,35.98,68,84,4.09,RU,1722884171
116,whitehorse,60.7161,-135.0538,71.1,40,0,13.8,CA,1722884172
117,peace river,56.2501,-117.286,59.31,94,100,6.91,CA,1722884173
118,punta arenas,-53.15,-70.9167,33.91,80,20,9.22,CL,1722884174
119,ancud,-41.8697,-73.8203,46.78,91,100,14.52,CL,1722884176
120,taulaga,-11.0553,-171.0883,81.54,80,11,12.55,AS,1722884177
121,broken hill,-31.95,141.4333,41.02,92,0,5.08,AU,1722884178
122,kourou,5.1552,-52.6478,89.65,62,3,10.4,GF,1722884179
123,shalya,57.2471,58.7298,58.42,99,100,4.97,RU,1722884180
124,hermanus,-34.4187,19.2345,52.48,79,12,12.59,ZA,1722884181
125,lorengau,-2.0226,147.2712,80.47,81,87,7.31,PG,1722884182
126,santa maria da vitoria,-13.3947,-44.1886,88.14,27,0,8.75,BR,1722884183
127,ziway,7.9333,38.7167,65.25,82,100,4.81,ET,1722884184
128,chonglong,29.7806,104.8522,79.41,89,0,0.58,CN,1722884185
129,khanty-mansiysk,61.0042,69.0019,66.31,77,40,11.18,RU,1722884186
130,fort mcmurray,56.7268,-111.381,72.99,52,0,11.5,CA,1722884187
131,port mathurin,-19.6833,63.4167,72.39,77,14,20.07,MU,1722884188
132,longyearbyen,78.2186,15.6401,51.64,76,20,17.27,SJ,1722884189
133,long beach,33.767,-118.1892,97.68,54,0,8.05,US,1722884081
134,pathein,16.7833,94.7333,77.65,90,100,4.07,MM,1722884191
135,masina,-4.3836,15.3914,82.69,54,20,0.0,CD,1722884192
136,brisas de zicatela,15.8369,-97.0419,84.72,84,75,8.05,MX,1722884193
137,achinsk,56.2694,90.4993,61.18,93,100,4.27,RU,1722884020
138,marka,1.7159,44.7717,75.76,80,3,21.18,SO,1722884195
139,ascension,30.2169,-90.9001,96.8,54,75,5.75,US,1722884196
140,east ballina,-28.8667,153.5833,61.81,79,100,9.06,AU,1722884197
141,odesskoye,54.2111,72.9651,61.57,87,11,7.11,RU,1722884198
142,prineville,44.2999,-120.8345,88.5,30,0,0.0,US,1722884199
143,utrik,11.2278,169.8474,82.45,81,94,15.05,MH,1722884201
144,akrehamn,59.2667,5.1833,64.65,72,75,19.57,NO,1722884202
145,pudozh,61.8099,36.5345,57.6,95,100,6.04,RU,1722884203
146,igarka,67.4667,86.5833,47.61,71,99,11.95,RU,1722884204
147,anacapri,40.5558,14.2136,83.44,79,0,2.3,IT,1722884205
148,port blair,11.6667,92.75,80.64,89,75,5.75,IN,1722884083
149,invercargill,-46.4,168.35,38.01,92,95,5.01,NZ,1722884207
150,margate,51.3813,1.3862,67.69,74,2,10.8,GB,1722883846
151,remire-montjoly,4.9167,-52.2667,89.64,66,40,16.11,GF,1722884210
152,sabha,27.0377,14.4283,95.43,12,0,12.59,LY,1722884212
153,salekhard,66.53,66.6019,44.35,68,76,11.45,RU,1722884213
154,naze,28.3667,129.4833,81.52,86,0,7.27,JP,1722884214
155,mount pearl,47.5166,-52.7813,74.32,87,100,25.32,CA,1722884215
156,pullman,46.7313,-117.1796,73.63,77,100,12.66,US,1722884053
157,happy valley-goose bay,53.3168,-60.3315,75.51,43,75,10.36,CA,1722884217
158,kasongo,-4.45,26.6667,78.06,25,20,1.36,CD,1722884218
159,ronda,36.7423,-5.1671,86.23,32,0,4.7,ES,1722884219
160,mana,5.6592,-53.7767,85.51,66,13,13.0,GF,1722884220
161,watsa,3.0372,29.5355,66.38,96,100,0.98,CD,1722884221
162,iskateley,67.6803,53.1512,43.66,83,3,11.9,RU,1722884222
163,pueblo,38.2545,-104.6091,99.57,22,0,8.05,US,1722883969
164,bamboo flat,11.7,92.7167,80.69,89,75,5.75,IN,1722884224
165,newnham,-41.3833,147.1333,48.31,93,100,12.66,AU,1722884225
166,kuanda,56.3161,116.0806,57.96,84,100,2.06,RU,1722884226
167,mar del plata,-38.0023,-57.5575,56.52,84,0,17.27,AR,1722884132
168,aydarken,39.9443,71.3429,62.6,42,4,1.61,KG,1722884228
169,kamloops,50.6665,-120.3192,82.74,39,20,10.36,CA,1722884080
170,champua,22.0833,85.6667,78.15,88,100,6.42,IN,1722884230
171,ostersund,63.1792,14.6357,66.65,72,100,4.61,SE,1722884231
172,howrah,22.5892,88.3103,82.4,94,40,3.44,IN,1722884232
173,shingu,33.7333,135.9833,77.43,94,61,3.06,JP,1722884233
174,faya-largeau,17.9257,19.1043,88.61,53,100,15.1,TD,1722884234
175,warwick,41.7001,-71.4162,90.72,64,20,11.5,US,1722884235
176,afaahiti,-17.75,-149.2833,76.87,75,86,11.92,PF,1722884236
177,lithgow,-33.4833,150.15,36.64,91,0,4.21,AU,1722884238
178,axim,4.8699,-2.2405,74.21,87,100,8.61,GH,1722884239
179,quepos,9.4236,-84.1652,82.44,79,72,5.35,CR,1722884240
180,ilulissat,69.2167,-51.1,45.43,61,8,3.38,GL,1722884241
181,hadibu,12.65,54.0333,78.15,80,37,19.22,YE,1722884242
182,machico,32.7,-16.7667,77.72,72,40,10.36,PT,1722884243
183,inirida,3.8653,-67.9239,85.15,68,69,1.7,CO,1722884244
184,nueve de julio,-35.4444,-60.8831,59.97,80,86,1.99,AR,1722883952
185,st. john's,47.5649,-52.7093,75.15,87,100,25.32,CA,1722884156
186,constantia,44.1833,28.65,74.08,61,100,12.08,RO,1722884247
187,yauya,-8.9833,-77.3,64.53,31,51,6.87,PE,1722884248
188,labrador city,52.9463,-66.9114,57.18,62,100,16.11,CA,1722884249
189,muntok,-2.0667,105.1833,80.01,81,85,10.63,ID,1722884250
190,touros,-5.1989,-35.4608,79.34,69,86,17.34,BR,1722884251
191,fukuecho,32.6881,128.8419,83.35,77,55,8.34,JP,1722884252
192,jamaame,0.0697,42.745,75.09,78,2,13.67,SO,1722884253
193,limon,10.0,-83.0333,87.06,79,0,8.05,CR,1722884254
194,ponta delgada,37.7333,-25.6667,79.52,78,20,11.5,PT,1722884255
195,jamestown,42.097,-79.2353,85.01,67,75,11.99,US,1722883992
196,williams lake,52.1415,-122.1445,68.05,58,75,10.36,CA,1722884257
197,arkhangel'sk,64.5401,40.5433,57.31,88,40,4.47,RU,1722884068
198,la passe,45.5549,-0.8967,77.02,74,0,11.32,FR,1722884259
199,suicheng,33.8963,117.9331,79.27,89,1,2.98,CN,1722884260
200,tual,-5.6667,132.75,77.45,85,97,20.78,ID,1722884261
201,talakan,50.3167,130.3667,65.88,99,100,4.45,RU,1722884262
202,sampit,-2.5333,112.95,72.99,92,99,2.3,ID,1722884145
203,al mijlad,11.0333,27.7333,83.89,58,96,9.28,SD,1722884265
204,shendi,16.6915,33.4341,87.28,52,99,22.1,SD,1722884266
205,atafu village,-8.5421,-172.5159,82.26,75,26,5.12,TK,1722884267
206,ceeldheer,3.8488,47.1806,75.88,81,2,20.47,SO,1722884268
207,at taj,24.2049,23.2857,90.79,14,5,10.58,LY,1722884269
208,navasota,30.388,-96.0877,96.26,54,0,5.97,US,1722884270
209,saldanha,-33.0117,17.9442,53.65,81,1,9.17,ZA,1722884271
210,puerto deseado,-47.7503,-65.8938,40.1,76,100,15.32,AR,1722884272
211,camana,-16.6228,-72.7111,61.43,83,96,9.53,PE,1722884273
212,prince george,53.9166,-122.753,67.62,57,0,11.5,CA,1722884050
213,selfoss,63.9331,-20.9971,53.04,96,100,1.86,IS,1722884275
214,pangkalanbuun,-2.6833,111.6167,71.94,94,100,1.36,ID,1722884276
215,menongue,-14.6585,17.691,65.37,22,0,4.94,AO,1722884278
216,qaqortoq,60.7167,-46.0333,49.01,69,100,3.69,GL,1722884279
217,la palma,33.8464,-118.0467,102.42,48,40,8.05,US,1722884047
218,reggane,26.7158,0.1714,108.14,8,0,7.45,DZ,1722884281
219,camiri,-20.05,-63.5167,89.38,35,11,6.91,BO,1722884282
220,hlohovec,48.4317,17.8031,66.42,53,0,5.14,SK,1722884283
221,sisimiut,66.9395,-53.6735,46.22,74,85,5.14,GL,1722884284
222,zouerate,22.7187,-12.4521,103.95,12,2,17.72,MR,1722884285
223,bukama,-9.2,25.85,77.04,18,0,1.81,CD,1722884286
224,chadan,51.2833,91.5833,56.98,90,100,0.78,RU,1722884287
225,robertsport,6.7533,-11.3686,77.34,86,33,13.65,LR,1722884288
226,ende,-8.8432,121.6623,70.99,91,34,3.71,ID,1722884289
227,khandyga,62.6667,135.6,54.61,98,100,4.5,RU,1722884290
228,smirnykh,49.75,142.8333,52.88,96,100,2.51,RU,1722884291
229,ponnani,10.767,75.9252,76.32,86,100,4.25,IN,1722884292
230,berezovyy,51.6667,135.7,63.55,96,100,4.34,RU,1722884293
231,keflavik,64.0049,-22.5624,57.11,94,75,9.22,IS,1722884294
232,northam,51.0333,-4.2167,69.39,86,100,14.58,GB,1722884295
233,beloyarskiy,63.7119,66.6722,52.7,70,100,8.37,RU,1722884296
234,severnoye,56.3491,78.3619,59.95,93,100,4.03,RU,1722884297
235,alice springs,-23.7,133.8833,36.95,100,0,0.0,AU,1722884298
236,hong kong,22.2855,114.1577,87.96,84,100,4.0,HK,1722884258
237,pangody,65.85,74.4859,48.78,66,63,11.63,RU,1722884300
238,bain-de-bretagne,47.8442,-1.6849,72.7,67,0,9.19,FR,1722884301
239,loiza,18.4313,-65.8802,92.08,74,40,17.27,PR,1722884302
240,akureyri,65.6835,-18.0878,53.53,87,100,13.8,IS,1722884304
241,saint-philippe,-21.3585,55.7679,65.79,81,7,5.95,RE,1722884305
242,wailua homesteads,22.0669,-159.378,80.13,73,0,11.5,US,1722884306
243,whangarei,-35.7317,174.3239,42.06,97,3,2.91,NZ,1722884307
244,enewetak,11.3474,162.3373,83.55,73,83,4.9,MH,1722884308
245,saint-pierre,-21.3393,55.4781,65.88,68,0,6.91,RE,1722884088
246,abaza,52.655,90.0928,55.31,96,100,4.43,RU,1722884310
247,port lincoln,-34.7333,135.8667,48.6,91,99,9.42,AU,1722884311
248,shancheng,34.7953,116.0817,76.62,97,100,5.82,CN,1722884312
249,saudarkrokur,65.7461,-19.6394,51.35,92,100,10.02,IS,1722884235
250,al muwayh,22.4333,41.7583,85.05,45,99,7.4,SA,1722884314
251,new norfolk,-42.7826,147.0587,50.92,83,100,4.5,AU,1722884315
252,san patricio,28.017,-97.5169,94.15,40,12,6.49,US,1722884316
253,klyuchi,52.2667,79.1667,64.51,69,40,6.62,RU,1722884317
254,sao joao da barra,-21.6403,-41.0511,80.69,80,0,17.05,BR,1722884318
255,dhromolaxia,34.8755,33.5868,87.46,47,0,3.44,CY,1722884319
256,thompson,55.7435,-97.8558,69.96,37,20,5.75,CA,1722884320
257,quellon,-43.1167,-73.6167,46.33,94,100,18.57,CL,1722884321
258,tashtyp,52.7939,89.8983,54.79,95,82,4.16,RU,1722884322
259,luuq,3.7938,42.5445,86.59,33,55,14.54,SO,1722884323
260,dolores,-36.3132,-57.6792,56.46,85,100,13.47,AR,1722884182
261,rio san juan,19.6439,-70.0763,85.8,72,16,14.38,DO,1722884326
262,khorixas,-20.3667,14.9667,68.34,18,0,5.88,NA,1722884327
263,anadyr,64.75,177.4833,36.1,93,75,13.42,RU,1722884328
264,mogadishu,2.0371,45.3438,76.23,80,2,22.5,SO,1722884329
265,harper,4.375,-7.7169,75.78,84,100,10.11,LR,1722884330
266,new washington,11.6508,122.4322,75.13,100,100,3.36,PH,1722884331
267,holualoa,19.6228,-155.9522,78.87,79,40,5.75,US,1722884332
268,mejit,10.2753,170.8646,83.01,79,100,15.01,MH,1722884333
269,chegdomyn,51.1167,133.0167,64.45,99,100,3.0,RU,1722884334
270,yoloten,37.2989,62.3597,85.93,19,0,11.9,TM,1722884335
271,guangming,45.3333,122.7833,69.55,74,0,7.27,CN,1722884336
272,coquimbo,-29.9533,-71.3436,60.53,63,0,10.36,CL,1722884213
273,luis correia,-2.8792,-41.6669,86.0,66,20,12.66,BR,1722884338
274,skidel',53.5904,24.2478,61.86,87,99,4.32,BY,1722884339
275,qala i naw,34.9874,63.1289,84.31,19,0,3.22,AF,1722884341
276,burang,30.25,81.1667,51.94,73,100,6.26,CN,1722884342
277,lazaro cardenas,17.9583,-102.2,86.16,65,100,7.18,MX,1722884343
278,palikir - national government center,6.9248,158.1611,75.94,94,40,3.44,FM,1722884344
279,sorong,-0.8833,131.25,76.26,93,71,6.93,ID,1722884345
280,dzuunmod,48.2199,97.3744,54.14,45,49,6.02,MN,1722884346
281,luanda,-8.8368,13.2343,68.0,94,20,10.36,AO,1722884258
282,shalqar,47.8333,59.6,87.22,26,17,8.55,KZ,1722884348
283,sinabang,2.4803,96.3801,77.97,86,99,3.44,ID,1722884349
284,khalabat,34.06,72.8894,85.32,72,52,1.74,PK,1722884350
285,freetown,8.484,-13.2299,77.45,86,98,10.54,SL,1722884352
286,villa general belgrano,-31.9754,-64.5559,70.0,27,5,11.59,AR,1722884287
287,olinda,-8.0089,-34.8553,82.13,61,40,13.8,BR,1722884354
288,mingora,34.7758,72.3625,79.32,83,69,2.26,PK,1722884355
289,tsuyama,35.05,134.0,78.84,93,15,1.23,JP,1722884356
290,portland,45.5234,-122.6762,81.64,51,0,1.99,US,1722884100
291,santa cruz de barahona,18.2085,-71.1008,91.22,58,20,18.41,DO,1722884358
292,sandnessjoen,66.0217,12.6316,73.92,68,0,8.05,NO,1722884359
293,benguela,-12.5763,13.4055,69.33,87,100,2.57,AO,1722884360
294,hermansverk,61.1846,6.8502,70.25,68,75,0.0,NO,1722884361
295,nuuk,64.1835,-51.7216,44.55,81,100,4.59,GL,1722884362
296,luderitz,-26.6481,15.1594,55.98,66,0,16.44,NA,1722884363
297,uturoa,-16.7333,-151.4333,78.48,73,100,12.3,PF,1722884364
298,falam,22.9167,93.6833,68.52,99,100,1.43,MM,1722884365
299,boa vista,2.8197,-60.6733,89.58,51,40,3.44,BR,1722884236
300,castillos,-34.1667,-53.8333,57.65,92,100,11.23,UY,1722884368
301,bikenibeu village,1.3673,173.1241,83.97,62,99,12.75,KI,1722884369
302,nouadhibou,20.931,-17.0347,75.18,78,27,20.71,MR,1722884370
303,hammerfest,70.6634,23.6821,64.51,61,7,3.87,NO,1722884371
304,libertad,8.9442,125.5019,77.02,95,100,2.28,PH,1722884372
305,vilyuchinsk,52.9306,158.4028,53.87,83,100,0.45,RU,1722884373
306,katsuura,35.1333,140.3,76.17,92,0,6.38,JP,1722884374
307,waddan,29.1614,16.139,94.59,14,0,15.03,LY,1722884375
308,hemsby,52.6971,1.6918,75.43,76,100,9.35,GB,1722884376
309,al qusayr,34.5091,36.5798,78.6,55,0,7.05,SY,1722884377
310,miri,4.4148,114.0089,78.94,94,20,0.0,MY,1722884378
311,ingeniero guillermo n. juarez,-23.9,-61.85,90.37,34,92,12.06,AR,1722884379
312,sinop,41.7711,34.8709,63.23,96,75,2.13,TR,1722884381
313,kudymkar,59.0173,54.656,58.3,96,61,3.38,RU,1722884382
314,kabalo,-6.05,26.9167,81.21,21,5,3.94,CD,1722884383
315,talnakh,69.4865,88.3972,47.08,69,0,3.74,RU,1722884384
316,mahina,-17.5065,-149.489,78.57,61,40,3.44,PF,1722884387
317,visegrad,43.7847,19.2992,67.46,68,24,1.07,BA,1722884388
318,lashio,22.9333,97.75,67.57,100,93,0.78,MM,1722884389
319,nemuro,43.3236,145.575,61.81,100,100,2.24,JP,1722884390
320,mollendo,-17.0231,-72.0147,60.26,83,100,8.93,PE,1722884391
321,skeldon,5.8833,-57.1333,89.65,56,60,6.55,GY,1722884392
322,niamey,13.5137,2.1098,91.69,52,20,8.05,NE,1722884393
323,saynshand,44.8824,110.1163,74.89,33,8,7.05,MN,1722884395
324,dilling,12.05,29.65,73.27,83,100,11.63,SD,1722884397
325,tura,25.5198,90.2201,75.76,99,100,5.68,IN,1722884398
326,aranda de duero,41.6704,-3.6892,86.22,22,0,8.77,ES,1722884399
327,trofa,41.3065,-8.5764,79.47,76,17,11.36,PT,1722884400
328,vadso,70.0744,29.7487,56.28,87,0,11.5,NO,1722884401
329,ta`u,-14.2336,-169.5144,78.08,76,26,6.15,AS,1722884402
330,kodiak,57.79,-152.4072,53.11,100,100,13.8,US,1722884404
331,patterson,37.4716,-121.1297,87.98,20,0,5.53,US,1722884406
332,paita,-5.0892,-81.1144,70.75,66,0,17.05,PE,1722884407
333,kalemie,-5.9475,29.1947,71.87,44,1,1.25,CD,1722884408
334,yuzhno-kurilsk,44.0306,145.8556,61.03,99,100,5.77,RU,1722884409
335,tshabong,-26.05,22.45,49.89,30,0,6.6,BW,1722884410
336,san rafael,-34.6177,-68.3301,65.93,18,36,8.28,AR,1722884229
337,sucua,-2.4667,-78.1667,81.34,57,75,6.91,EC,1722884413
338,namibe,-15.1961,12.1522,64.44,87,100,3.53,AO,1722884414
339,puerto baquerizo moreno,-0.9,-89.6,72.59,88,75,11.5,EC,1722884415
340,raduzhnyy,62.0961,77.475,54.07,87,100,8.99,RU,1722884416
341,alaghsas,17.0187,8.0168,93.09,49,20,17.27,NE,1722884418
342,bel ombre,-4.6167,55.4167,78.64,89,40,11.5,SC,1722884419
343,usinsk,65.9939,57.5281,50.45,72,99,12.86,RU,1722884420
344,sao felix do xingu,-6.6447,-51.995,97.45,17,0,5.03,BR,1722884421
345,ha giang,22.8333,104.9833,75.61,98,100,1.74,VN,1722884422
346,warman,52.3168,-106.5679,67.91,60,100,13.8,CA,1722884423
347,kuhsan,34.6539,61.1978,88.54,16,0,20.11,AF,1722884424
348,midvagur,62.0511,-7.1939,52.63,93,75,8.05,FO,1722884425
349,yung shue wan,22.2333,114.1167,87.33,85,100,6.06,HK,1722884406
350,tobelo,1.7284,128.0095,79.52,84,100,1.61,ID,1722884428
351,al lagowa,11.4,29.1333,74.14,85,87,7.45,SD,1722884429
352,prince rupert,54.3161,-130.3201,59.09,94,0,4.61,CA,1722884430
353,argo,37.6333,22.7333,85.78,66,0,1.72,GR,1722884431
354,new plymouth,-39.0667,174.0833,47.8,84,74,2.75,NZ,1722884432
355,buka,40.8108,69.1986,76.03,25,0,3.33,UZ,1722884433
356,rio grande,-32.035,-52.0986,64.51,92,40,15.43,BR,1722884434
357,pakxan,18.3778,103.6601,75.04,96,100,1.74,LA,1722884436
358,zaozersk,69.4005,32.4476,46.27,94,15,6.53,RU,1722884437
359,belyy yar,53.6039,91.3903,62.49,82,0,13.42,RU,1722884438
360,sona,45.4388,10.8255,85.55,48,0,3.44,IT,1722884439
361,n'zeto,-7.2312,12.8666,69.33,82,11,7.27,AO,1722884440
362,arraias,-12.9288,-46.9437,87.06,19,0,6.49,BR,1722884441
363,cozumel,20.5083,-86.9458,87.94,80,71,6.26,MX,1722884442
364,suwayr,30.1171,40.3893,92.34,19,0,8.37,SA,1722884444
365,porto novo,6.4965,2.6036,78.62,81,98,11.16,BJ,1722884246
366,hobyo,5.3505,48.5268,76.35,83,50,28.43,SO,1722884446
367,catio,11.2833,-15.25,78.76,87,75,7.78,GW,1722884447
368,maceio,-9.6658,-35.7353,76.44,78,75,8.05,BR,1722884448
369,muszyna,49.3566,20.8972,59.11,80,95,2.89,PL,1722884375
370,boali,4.8005,18.1275,73.6,88,97,3.0,CF,1722884450
371,mayya,61.7333,130.2811,58.32,95,100,8.21,RU,1722884451
372,sinan,34.8262,126.1086,77.11,87,1,3.42,KR,1722884452
373,port said,31.2565,32.2841,84.18,65,0,8.05,EG,1722884453
374,bullhead city,35.1478,-114.5683,111.02,21,0,12.66,US,1722884257
375,aras-asan,8.8908,126.3033,77.65,87,100,8.3,PH,1722884455
376,karungdong,5.8844,121.263,80.71,83,100,4.07,PH,1722884456
377,albu kamal,34.45,40.9186,96.1,19,0,12.57,SY,1722884457
378,illela,13.7292,5.2975,85.82,62,67,4.88,NG,1722884458
379,yanam,16.7333,82.2167,79.92,89,100,3.65,IN,1722884459
380,beau vallon,-20.4189,57.6953,67.21,88,20,3.44,MU,1722884460
381,new romney,50.986,0.9412,69.13,76,0,8.05,GB,1722884461
382,choibalsan,48.0667,114.5,59.81,85,18,1.5,MN,1722884462
383,gamba,-2.65,10.0,70.52,82,65,5.01,GA,1722884463
384,timmins,48.4669,-81.3331,67.82,37,75,9.22,CA,1722884464
385,mount isa,-20.7333,139.5,60.57,67,100,9.22,AU,1722884465
386,lascano,-33.6667,-54.2,58.93,96,100,11.79,UY,1722884466
387,kayyerkan,69.3786,87.7439,42.89,81,4,11.32,RU,1722884467
388,cestos city,5.46,-9.5828,77.11,82,39,10.71,LR,1722884468
389,forestville,38.8451,-76.875,95.49,49,75,5.75,US,1722884469
390,tete,-16.1564,33.5867,68.09,42,0,6.91,MZ,1722884470
391,susuman,62.7833,148.1667,51.91,66,94,6.35,RU,1722884471
392,barakani,-12.1356,44.4317,75.27,70,25,5.75,KM,1722884472
393,loches,47.1333,1.0,79.14,61,0,4.12,FR,1722884473
394,juhaynah,26.6732,31.4976,98.92,15,92,7.36,EG,1722884474
395,bay roberts,47.5999,-53.2648,74.95,91,100,8.01,CA,1722884476
396,cremona,45.2333,9.9333,90.09,65,16,4.23,IT,1722884477
397,aripuana,-9.1667,-60.6333,98.92,18,3,4.59,BR,1722884478
398,dunedin,-45.8742,170.5036,42.8,83,32,6.49,NZ,1722884479
399,boda,4.3189,17.4695,72.23,91,100,5.01,CF,1722884480
400,helong,42.5397,128.9972,72.45,99,100,3.24,CN,1722884482
401,ndende,-2.4008,11.3581,77.43,62,100,7.58,GA,1722884484
402,ust'-kut,56.7938,105.7672,55.62,80,8,0.27,RU,1722884485
403,jatiroto,-7.8833,111.1167,68.68,85,99,2.68,ID,1722884486
404,datong,40.0936,113.2914,68.58,67,3,4.07,CN,1722884487
405,turkmenbasy,40.0222,52.9552,81.37,50,0,2.3,TM,1722884488
406,vila franca do campo,37.7167,-25.4333,79.21,71,10,8.88,PT,1722884489
407,ati,13.2154,18.3353,74.88,90,99,5.53,TD,1722884490
408,albina,5.5,-54.05,93.58,39,100,5.68,SR,1722884491
409,hailar,49.2,119.7,62.46,68,1,7.99,CN,1722884492
410,dazhong,33.1997,120.4578,77.74,89,65,6.96,CN,1722884493
411,konstantinovka,49.6167,127.9833,69.57,92,100,6.53,RU,1722884494
412,tionk essil,12.7856,-16.5217,82.36,90,100,8.63,SN,1722884495
413,dudinka,69.4058,86.1778,46.18,68,17,17.6,RU,1722884496
414,hovd,48.0056,91.6419,68.34,36,0,7.36,MN,1722884497
415,harstad,68.799,16.5293,70.99,73,84,2.21,NO,1722884498
416,nguigmi,14.2495,13.1092,80.35,67,100,6.55,NE,1722884499
417,cidreira,-30.1811,-50.2056,63.12,93,83,6.96,BR,1722884500
418,ban phai,16.06,102.731,80.82,84,99,10.58,TH,1722884502
419,salamanca,40.8333,-6.0,88.63,17,0,13.6,ES,1722884503
420,jiuquan,39.7432,98.5174,80.71,28,100,15.68,CN,1722884505
421,apia,-13.8333,-171.7667,71.51,74,19,8.86,WS,1722884506
422,ebon,4.582,168.6964,83.93,72,19,10.76,MH,1722884507
423,champerico,14.3,-91.9167,91.94,69,82,6.17,GT,1722884424
424,corte,42.25,9.25,81.0,88,96,2.44,FR,1722884509
425,aksu,41.1231,80.2644,78.49,46,99,3.04,CN,1722884510
426,roma,43.2128,-75.4557,85.68,67,97,3.0,US,1722884511
427,mariental,-24.6333,17.9667,54.25,37,0,11.68,NA,1722884512
428,laguna,38.421,-121.4238,93.54,36,0,5.75,US,1722884513
429,muborak,39.2553,65.1528,85.57,15,0,17.4,UZ,1722884514
430,chonchi,-42.6128,-73.8092,47.12,97,100,3.91,CL,1722884515
431,yerofey pavlovich,53.9667,121.9667,52.36,95,36,2.89,RU,1722884516
432,opatija,45.3392,14.3083,82.17,61,64,4.52,HR,1722884517
433,usakos,-22.0,15.6,63.84,25,0,4.72,NA,1722884518
434,general pico,-35.6566,-63.7568,66.2,35,100,14.76,AR,1722884462
435,yeppoon,-23.1333,150.7333,54.25,84,0,8.37,AU,1722884520
436,thunder bay,48.4001,-89.3168,75.18,35,75,9.22,CA,1722884421
437,kudepsta,43.4944,39.8964,75.25,83,40,4.47,RU,1722884522
438,kabansk,52.0486,106.6528,56.44,78,3,4.47,RU,1722884524
439,tucuma,-0.1833,-50.05,89.19,54,0,11.92,BR,1722884526
440,labytnangi,66.6572,66.4183,45.46,64,35,12.53,RU,1722884527
441,argos,37.6333,22.7333,85.78,66,0,1.72,GR,1722884431
442,siwa oasis,29.2041,25.5195,94.87,19,0,8.03,EG,1722884529
443,trimbak,19.9333,73.55,70.36,98,100,10.33,IN,1722884530
444,innisfil,44.3001,-79.6496,81.01,68,100,1.14,CA,1722884531
445,necochea,-38.5473,-58.7368,58.86,55,99,11.32,AR,1722884509
446,santarem,-2.4431,-54.7083,89.73,58,20,11.5,BR,1722884533
447,mokhsogollokh,61.4681,128.9203,55.47,96,100,6.91,RU,1722884534
448,sulphur,30.2366,-93.3774,96.98,56,40,4.61,US,1722884535
449,flin flon,54.7682,-101.865,73.24,33,75,2.3,CA,1722884536
450,bolivar,37.6145,-93.4105,95.0,44,0,8.05,US,1722884538
451,zhangatas,43.5667,69.75,76.78,23,14,6.22,KZ,1722884540
452,shenyang,41.7922,123.4328,75.22,94,40,2.24,CN,1722884250
453,kerikeri,-35.2268,173.9474,42.91,94,1,1.99,NZ,1722884543
454,bengkulu,-3.8004,102.2655,73.99,92,9,6.04,ID,1722884544
455,korla,41.7597,86.1469,84.25,34,76,3.56,CN,1722884545
456,palmer,42.1584,-72.3287,89.2,52,83,1.01,US,1722884546
457,quiindy,-25.9667,-57.2667,87.06,43,13,10.51,PY,1722884547
458,la'ie,21.6477,-157.9253,82.45,73,86,5.01,US,1722884548
459,fale old settlement,-9.3852,-171.2468,81.43,78,100,10.09,TK,1722884549
460,batang,-6.4846,110.7083,75.99,73,86,7.0,ID,1722884550
461,sibolga,1.7427,98.7792,76.71,89,100,2.44,ID,1722884551
462,constitucion,-35.3333,-72.4167,51.33,85,100,2.98,CL,1722884552
463,illizi,26.4833,8.4667,98.4,15,0,11.39,DZ,1722884553
464,serenje,-13.2325,30.2352,60.12,33,0,4.12,ZM,1722884554
465,paracuru,-3.41,-39.0306,81.1,65,100,16.4,BR,1722884555
466,fuling,29.7022,107.3919,78.33,89,14,3.36,CN,1722884556
467,longgang,37.6508,120.3286,77.77,82,100,6.11,CN,1722884557
468,gadzhiyevo,69.2551,33.3362,51.04,79,2,5.84,RU,1722884558
469,bodo,67.28,14.405,69.84,60,0,4.61,NO,1722884559
470,sabancuy,18.9667,-91.1833,86.79,65,100,8.19,MX,1722884560
471,billings,45.7833,-108.5007,82.29,49,20,3.44,US,1722884561
472,panaba,21.2833,-88.2667,94.78,48,84,6.13,MX,1722884562
473,pocone,-16.2567,-56.6228,98.98,14,0,7.87,BR,1722884563
474,lucheng,31.2336,117.2806,79.84,76,8,6.31,CN,1722884564
475,polyarnyy,69.1989,33.4478,51.93,75,3,5.82,RU,1722884565
476,alesund,62.4723,6.1549,65.34,93,75,14.97,NO,1722884566
477,san julian,21.0167,-102.1667,74.3,40,1,4.88,MX,1722884567
478,prado,-17.3411,-39.2208,76.06,67,0,7.58,BR,1722884568
479,bereznik,62.8551,42.7072,56.61,88,100,4.41,RU,1722884569
480,mancio lima,-7.6142,-72.8958,78.87,89,75,14.97,BR,1722884570
481,ranong,9.9658,98.6348,78.89,89,92,6.53,TH,1722884572
482,boende,-0.2167,20.8667,77.41,68,79,2.39,CD,1722884573
483,shwebo,22.5667,95.7,76.8,93,100,7.16,MM,1722884574
484,acarau,-2.8856,-40.12,83.1,62,100,21.61,BR,1722884575
485,rongelap,11.1635,166.8941,82.94,79,100,16.22,MH,1722884576
486,muli,2.9167,73.5667,82.94,73,100,6.17,MV,1722884577
487,kachug,53.9606,105.8817,56.89,80,20,2.77,RU,1722884578
488,pangoa,-12.1167,-73.0,88.52,40,74,5.46,PE,1722884580
489,campos dos goytacazes,-21.75,-41.3,80.65,65,0,17.27,BR,1722884403
490,bardai,11.65,7.2333,73.45,87,100,8.12,NG,1722884582
491,chernyshevskiy,63.0128,112.4714,58.91,59,99,3.65,RU,1722884583
492,benghazi,32.1167,20.0667,84.09,64,0,11.59,LY,1722884584
493,fauske,67.2588,15.3918,69.84,68,76,2.33,NO,1722884585
494,shimoda,34.6667,138.95,78.1,88,8,3.47,JP,1722884586
495,tosontsengel,48.7567,98.2839,53.76,54,66,3.98,MN,1722884587
496,vernal,40.4555,-109.5287,89.65,29,0,1.99,US,1722884588
497,libreville,0.3925,9.4537,77.02,83,75,8.05,GA,1722884333
498,ilhabela,-23.7781,-45.3581,76.03,66,0,2.44,BR,1722884590
499,baotou,40.6522,109.8222,75.11,50,12,4.68,CN,1722884591
500,suva,-18.1416,178.4415,60.28,100,20,3.44,FJ,1722884592
501,abaete,-19.16,-45.4458,80.53,38,85,5.91,BR,1722884467
502,cambria,35.5641,-121.0808,93.42,62,37,9.48,US,1722884594
503,bhag,29.0415,67.8239,95.97,48,87,5.3,PK,1722884595
504,crane,31.3974,-102.3501,91.54,30,100,8.55,US,1722884596
505,huarmey,-10.0681,-78.1522,69.26,69,0,13.47,PE,1722884597
506,grandview,38.8858,-94.533,97.92,41,0,12.66,US,1722884598
507,walvis bay,-22.9575,14.5053,56.08,80,0,6.64,NA,1722884599
508,tangalle,6.024,80.7911,78.96,82,100,10.54,LK,1722884600
509,el quebrachal,-25.2833,-64.0667,82.09,31,0,9.37,AR,1722884601
510,arar,30.9753,41.0381,91.42,8,0,10.36,SA,1722884603
511,korsakov,46.6328,142.7813,55.24,94,100,4.56,RU,1722884604
512,cill airne,52.05,-9.5167,59.27,75,85,7.23,IE,1722884605
513,newman,37.3138,-121.0208,91.74,18,0,2.17,US,1722884607
514,vanimo,-2.6741,141.3028,76.37,89,99,4.32,PG,1722884609
515,tidjikja,18.5564,-11.4271,91.09,43,3,11.41,MR,1722884536
516,hirara,24.8,125.2833,79.07,94,75,4.61,JP,1722884611
517,amga,60.8953,131.9608,49.86,96,100,8.46,RU,1722884612
518,malango,-2.9627,119.9001,63.95,99,13,2.53,ID,1722884613
519,ruwandiz,36.6163,44.5311,87.22,22,0,3.47,IQ,1722884614
520,okha,53.5739,142.9478,54.64,87,100,19.13,RU,1722884615
521,hilo,19.7297,-155.09,80.62,76,20,4.61,US,1722884617
522,lata,40.1629,-8.3327,71.08,66,0,6.46,PT,1722884618
523,nguruka,-5.1092,31.0419,70.97,21,0,3.33,TZ,1722884619
524,ejea de los caballeros,42.1263,-1.1372,98.82,24,59,5.75,ES,1722884620
525,san juan pueblo,15.5833,-87.2333,88.36,50,95,6.51,HN,1722884621
526,kars,40.602,43.095,61.25,72,40,9.22,TR,1722884622
527,fisterra,42.9049,-9.2629,76.01,94,9,8.9,ES,1722884624
528,sambava,-14.2667,50.1667,71.4,84,72,9.19,MG,1722884627
529,qamdo,31.1667,97.2333,46.29,56,3,2.37,CN,1722884628
530,dalandzadgad,43.5708,104.425,77.38,29,87,7.09,MN,1722884629
531,as sulayyil,20.4607,45.5779,100.65,14,100,5.99,SA,1722884630
532,queenstown,-31.8976,26.8753,48.18,25,0,6.11,ZA,1722884631
533,pokachi,61.7198,75.3683,53.44,88,100,10.54,RU,1722884632
534,myanaung,18.2833,95.3167,77.16,94,100,3.67,MM,1722884633
535,road town,18.4167,-64.6167,91.49,70,40,16.11,VG,1722884634
536,belmonte,-15.8631,-38.8828,76.62,64,2,7.4,BR,1722884513
537,pacific grove,36.6177,-121.9166,72.37,91,100,8.05,US,1722884636
538,malanje,-9.5402,16.341,75.85,20,0,4.05,AO,1722884637
539,iho,5.5667,7.1,74.62,87,100,7.72,NG,1722884638
540,myeik,12.4333,98.6,79.38,85,100,4.38,MM,1722884639
541,bahia honda,22.9036,-83.1592,89.83,62,100,7.4,CU,1722884640
542,tazacorte,28.629,-17.9293,76.15,84,20,10.36,ES,1722884641
543,solleftea,63.1667,17.2667,64.26,91,2,2.77,SE,1722884642
544,el nido,11.1858,119.3956,78.15,92,99,9.08,PH,1722884643
545,al ghayzah,16.2079,52.176,76.48,91,37,12.37,YE,1722884644
546,lobujya,27.95,86.8167,40.41,98,100,5.14,NP,1722884645
547,trevelin,-43.0858,-71.4639,45.88,98,100,3.2,AR,1722884646
548,corner brook,48.9667,-57.9484,84.36,71,59,6.44,CA,1722884506
549,undurkhaan,47.3194,110.6556,57.45,87,16,3.29,MN,1722884648
550,yelizovo,53.1873,158.3805,53.74,100,100,2.24,RU,1722884455
551,davutlar,37.733,27.2944,86.41,72,0,5.32,TR,1722884650
552,zhanaozen,43.3,52.8,92.3,21,0,7.67,KZ,1722884651
553,sault ste. marie,46.5168,-84.3333,73.96,48,0,16.11,CA,1722884502
554,las heras,-46.5419,-68.9359,34.92,99,100,18.43,AR,1722884577
555,kovdor,67.5662,30.4758,56.26,56,25,3.71,RU,1722884654
556,bima,-8.4667,118.7167,71.15,95,10,3.06,ID,1722884656
557,madalena,41.2162,-8.3345,77.76,70,0,6.49,PT,1722884657
558,berdigestyakh,62.0989,126.6992,55.0,92,100,4.94,RU,1722884658
559,san luis,-33.295,-66.3356,71.28,21,0,13.91,AR,1722884659
560,gulf shores,30.246,-87.7008,95.34,59,20,9.22,US,1722884660
561,lewistown,40.5992,-77.5714,91.36,76,20,6.91,US,1722884661
562,beledweyne,4.7358,45.2036,77.79,60,47,24.74,SO,1722884662
563,xichang,27.8964,102.2634,65.17,91,6,0.98,CN,1722884663
564,el charco,2.4769,-78.1105,79.75,86,100,5.35,CO,1722884664
565,ad-damazin,11.7891,34.3592,72.09,91,100,8.16,SD,1722884665
566,topchikha,52.8192,83.1185,58.77,91,94,8.68,RU,1722884666
567,kupang,-10.1667,123.5833,77.58,83,0,8.05,ID,1722884667
568,liwale,-9.7667,37.9333,66.61,48,5,4.0,TZ,1722884668
569,kavaratti,10.5669,72.642,80.82,85,100,11.83,IN,1722884670
570,coahuayana de hidalgo,18.7,-103.6583,92.1,54,84,6.31,MX,1722884671
571,ambalangoda,6.2355,80.0538,83.98,85,100,9.33,LK,1722884672
572,kolonia,50.9333,6.95,77.65,71,0,3.44,DE,1722884405
573,morehead city,34.7229,-76.726,84.2,82,40,6.91,US,1722884674
574,nadi,-17.8,177.4167,62.6,77,20,0.0,FJ,1722884394
575,magong,23.5654,119.5863,83.7,79,100,2.24,TW,1722884532
576,kapa'a,22.0752,-159.319,81.1,70,20,13.8,US,1722884677
577,deqen,29.9618,90.7188,48.49,84,100,4.85,CN,1722884678
578,west bay,19.3667,-81.4167,89.67,70,40,9.22,KY,1722884679
579,qandala,11.472,49.8728,89.98,55,99,2.98,SO,1722884680
580,pervomayskoye,43.919,46.7102,75.15,70,41,5.26,RU,1722884681
581,degache,33.9761,8.2081,100.72,20,0,6.91,TN,1722884682
582,ha'il,27.5219,41.6907,93.22,22,0,6.91,SA,1722884488
583,garden city,42.3256,-83.331,84.87,71,75,10.36,US,1722884684
584,sirte,31.2089,16.5887,84.16,62,0,14.81,LY,1722884685
585,ohrid,41.1172,20.8019,73.29,49,75,4.61,MK,1722884573
586,novyy urengoy,66.0833,76.6333,51.98,60,100,13.24,RU,1722884687
587,nova vicosa,-17.8919,-39.3719,76.82,64,0,8.46,BR,1722884688
588,armacao de buzios,-22.7469,-41.8817,84.36,78,0,24.94,BR,1722884690
589,bonanza,14.0289,-84.591,82.0,73,99,2.59,NI,1722884422
590,mus,39.0,41.75,73.78,18,0,1.9,TR,1722884693
591,kanye,-24.9667,25.3327,52.63,22,5,6.64,BW,1722884694
592,akjoujt,19.6969,-14.4164,95.85,35,100,13.71,MR,1722884696
593,kualakapuas,-3.0091,114.3876,72.84,92,55,1.59,ID,1722884697
594,fort bragg,35.139,-79.006,88.45,75,100,3.0,US,1722884418
595,jaguarari,-10.2639,-40.1958,73.71,56,46,12.15,BR,1722884699
596,puerto vallarta,20.6204,-105.2307,93.9,67,40,9.22,MX,1722884700
597,gobabis,-22.45,18.9667,54.99,26,0,11.5,NA,1722884701
